[{"likeCount":24,"localData":{"_id":"651889aeb1cd1e0e2be4dcd1","name":"Local 4","description":"Local 4 de comida","address":"Andrews 4","uriImage":"file:///data/user/0/com.located/cache/rn_image_picker_lib_temp_6ca12f23-9085-487f-a674-007e9bf80e42.jpg","isVerify":true,"country":"Maexico","state":"Jalisco","town":"Guadalajara ","postalCode":"44250","contact":{"Facebook":{"info":"Local4@facebook.com"}},"schedules":[{"day1":"Lunes","day2":"Viernes","open":"14 : 47","close":"14 : 47"}],"rate":0,"quantityRate":0,"tags":["Food"],"location":{"latitude":20.723704779520325,"longitude":-103.32154244184494,"_id":"651889aeb1cd1e0e2be4dcd2"},"open":false,"businessType":"Cosina","__v":0}},{"likeCount":23,"localData":{"_id":"65188cb3b1cd1e0e2be4de60","name":"Local 7","description":"Local 7 comida","address":"Adores 7","uriImage":"file:///data/user/0/com.located/cache/rn_image_picker_lib_temp_848150ec-ee8c-4620-a838-67e75972d505.jpg","isVerify":true,"country":"Mexico","state":"Jalisco","town":"Guadalajara ","postalCode":"44250","contact":{"Facebook":{"info":"Local7@facebook.com"},"Whatsapp":{"info":"12321445644"}},"schedules":[{"day1":"Lunes","day2":"SÃ¡bado","open":"15 : 0","close":"15 : 0"}],"rate":0,"quantityRate":0,"tags":["Food"],"location":{"latitude":20.721449160252096,"longitude":-103.32295931875706,"_id":"65188cb3b1cd1e0e2be4de61"},"open":false,"businessType":"Cosina","__v":0}},{"likeCount":6,"localData":{"_id":"6516478c65dba6104e8c020b","name":"local 1","description":"local 1 de comida","address":"address 1","uriImage":"file:///data/user/0/com.located/cache/rn_image_picker_lib_temp_45d13b18-7873-4041-acb1-8504f3ed6294.jpg","isVerify":true,"country":"mexico","state":"jalisco","town":"Guadalajara ","postalCode":"44250","contact":{"Facebook":{"info":"local1@facebook.com"},"Email":{"info":"local1@gmail.com"},"Web page":{"info":"local1.com"},"Whatsapp":{"info":"3333155468"}},"schedules":[{"day1":"Monday","day2":"Friday","open":"10 : 39","close":"16 : 39"}],"rate":0,"quantityRate":0,"tags":["Comida","Food"],"location":{"latitude":20.722651136997552,"longitude":-103.3203837275505,"_id":"6516478c65dba6104e8c020c"},"open":false,"businessType":"Food","__v":0}},{"likeCount":4,"localData":{"_id":"6516616565dba6104e8c0309","name":"local 3","description":"local 3 farmacia","address":"address 3","uriImage":"file:///data/user/0/com.located/cache/rn_image_picker_lib_temp_2a70abd1-a9ff-47b0-8d68-94f5d967402a.jpg","isVerify":true,"country":"mexico","state":"jalisco","town":"Guadalajara ","postalCode":"44250","contact":{"Facebook":{"info":"local3@facebook.com"},"Whatsapp":{"info":"1658576858588"}},"schedules":[{"day1":"Monday","day2":"Friday","open":"9 : 30","close":"17 : 30"}],"rate":0,"quantityRate":0,"tags":["farmacia"],"location":{"latitude":20.724483404091,"longitude":-103.32075320184231,"_id":"6516616565dba6104e8c030a"},"open":false,"businessType":"farmacia","__v":0}},{"likeCount":2,"localData":{"_id":"65165e5b65dba6104e8c028b","name":"local 2","description":"local 2 comida","address":"address 2","uriImage":"file:///data/user/0/com.located/cache/rn_image_picker_lib_temp_34304845-a742-4b04-b3f3-09c32a08b61d.jpg","isVerify":true,"country":"mexico","state":"jalisco","town":"Guadalajara ","postalCode":"44250","contact":{"Facebook":{"info":"local2@facebook.com"},"Email":{"info":"local2@gmail.com"},"Instagram":{"info":"local2@inst.com"},"Web page":{"info":"local2.com"},"Whatsapp":{"info":"135488854332"}},"schedules":[{"day1":"Monday","day2":"Thursday","open":"5 : 17","close":"5 : 17"},{"day1":"Friday","day2":"Saturday","open":"5 : 17","close":"5 : 17"}],"rate":0,"quantityRate":0,"tags":["Food"],"location":{"latitude":20.724994540879365,"longitude":-103.32177311182022,"_id":"65165e5b65dba6104e8c028c"},"open":false,"businessType":"Comida","__v":0}}]